[
  {
    "name": "全聚德",
    "lat": 39.9655062,
    "lng": 116.322635,
    "visits": [
      {
        "date": "Thu May 01 11:30:00 +0800 2025",
        "postId": 5161454874398034,
        "postUrl": "https://weibo.com/7994637634/PpMILis82",
        "dishes": [],
        "quote": "新人博主第一次发视频，探访全聚德"
      }
    ],
    "region": "北京",
    "location": {
      "continent": "亚洲",
      "country": "中国",
      "province": null,
      "city": "海淀区"
    }
  },
  {
    "name": "枣阁园",
    "lat": 40.6071368,
    "lng": 109.6762005,
    "visits": [
      {
        "date": "Sat Jun 07 11:30:00 +0800 2025",
        "postId": 5174863229616386,
        "postUrl": "https://weibo.com/7994637634/Pvpx8ElF0",
        "dishes": [],
        "quote": "成都美食暴击，探访枣阁园，根本吃不完"
      }
    ],
    "region": "北京",
    "location": {
      "continent": "亚洲",
      "country": "中国",
      "province": "内蒙古自治区",
      "city": "九原区"
    }
  },
  {
    "name": "小李",
    "lat": 31.621471,
    "lng": 117.4688777,
    "visits": [
      {
        "date": "Thu Jun 12 11:30:00 +0800 2025",
        "postId": 5176675169730838,
        "postUrl": "https://weibo.com/7994637634/PwaFCEPr0",
        "dishes": [],
        "quote": "|全网无差评餐厅探店，结果体验不佳"
      }
    ],
    "region": "北京",
    "location": {
      "continent": "亚洲",
      "country": "中国",
      "province": "安徽省",
      "city": "肥东县"
    }
  },
  {
    "name": "芙蓉凰",
    "lat": 30.6670078,
    "lng": 104.0074506,
    "visits": [
      {
        "date": "Sun Jun 15 11:30:00 +0800 2025",
        "postId": 5177762328349554,
        "postUrl": "https://weibo.com/7994637634/PwCX6z26e",
        "dishes": [],
        "quote": "|建号以来第一个全好评餐厅"
      }
    ],
    "region": "北京",
    "location": {
      "continent": "亚洲",
      "country": "中国",
      "province": "四川省",
      "city": "青羊区"
    }
  },
  {
    "name": "包家兄弟",
    "lat": 28.6107892,
    "lng": 115.9433663,
    "visits": [
      {
        "date": "Tue Jun 17 11:30:00 +0800 2025",
        "postId": 5178487104343678,
        "postUrl": "https://weibo.com/7994637634/PwVO6idZk",
        "dishes": [],
        "quote": "|完全没有外地人的成都本地小馆体验"
      }
    ],
    "region": "北京",
    "location": {
      "continent": "亚洲",
      "country": "中国",
      "province": "江西省",
      "city": "青山湖区"
    }
  },
  {
    "name": "食贵",
    "lat": 31.2333709,
    "lng": 121.4708818,
    "visits": [
      {
        "date": "Tue Jun 24 11:30:01 +0800 2025",
        "postId": 5181023823331865,
        "postUrl": "https://weibo.com/7994637634/PxZNAdYLL",
        "dishes": [],
        "quote": "|在上海主动要差评的餐厅探店体验"
      }
    ],
    "region": "北京",
    "location": {
      "continent": "亚洲",
      "country": "中国",
      "province": "上海市",
      "city": "黄浦区"
    }
  },
  {
    "name": "绿波廊",
    "lat": 31.2284191,
    "lng": 121.4875436,
    "visits": [
      {
        "date": "Thu Jun 26 11:30:00 +0800 2025",
        "postId": 5181748599062753,
        "postUrl": "https://weibo.com/7994637634/PyiEzC1Dr",
        "dishes": [],
        "quote": "|探访上海名店绿波廊"
      }
    ],
    "region": "北京",
    "location": {
      "continent": "亚洲",
      "country": "中国",
      "province": "上海市",
      "city": "黄浦区"
    }
  },
  {
    "name": "泽秀",
    "lat": 39.8587519,
    "lng": 116.3118567,
    "visits": [
      {
        "date": "Sat Jun 28 11:30:00 +0800 2025",
        "postId": 5182473375318282,
        "postUrl": "https://weibo.com/7994637634/PyBvzmjwK",
        "dishes": [],
        "quote": "众多网红推荐的炖菜小馆"
      }
    ],
    "region": "北京",
    "location": {
      "continent": "亚洲",
      "country": "中国",
      "province": null,
      "city": "丰台区"
    }
  },
  {
    "name": "食庐餐厅",
    "lat": 28.7090963,
    "lng": 116.6805628,
    "visits": [
      {
        "date": "Tue Jul 01 11:30:01 +0800 2025",
        "postId": 5183560539440578,
        "postUrl": "https://weibo.com/7994637634/Pz3N3DBVo",
        "dishes": [],
        "quote": "来上海收到私信最多的餐厅"
      }
    ],
    "region": "北京",
    "location": {
      "continent": "亚洲",
      "country": "中国",
      "province": "江西省",
      "city": "余干县"
    }
  },
  {
    "name": "卖鱼佬",
    "lat": 22.2996083,
    "lng": 114.0000665,
    "visits": [
      {
        "date": "Thu Jul 10 11:30:00 +0800 2025",
        "postId": 5186822025254275,
        "postUrl": "https://weibo.com/7994637634/PAqDwm2Sn",
        "dishes": [],
        "quote": "只在深夜开门的海鲜粥店"
      }
    ],
    "region": "北京",
    "location": {
      "continent": "亚洲",
      "country": "中国",
      "province": null,
      "city": "香港"
    }
  },
  {
    "name": "好再来",
    "lat": 40.4465349,
    "lng": 116.6949165,
    "visits": [
      {
        "date": "Thu Jul 17 11:30:00 +0800 2025",
        "postId": 5189358741360042,
        "postUrl": "https://weibo.com/7994637634/PBuD05HOa",
        "dishes": [],
        "quote": "探店一家餐厅"
      }
    ],
    "region": "北京",
    "location": {
      "continent": "亚洲",
      "country": "中国",
      "province": null,
      "city": "怀柔区"
    }
  },
  {
    "name": "西安饭庄",
    "lat": 34.2391764,
    "lng": 108.8890849,
    "visits": [
      {
        "date": "Sat Jul 19 11:30:00 +0800 2025",
        "postId": 5190083518922933,
        "postUrl": "https://weibo.com/7994637634/PBNtZBrgh",
        "dishes": [],
        "quote": "探访西安最有名的饭店西安饭庄"
      }
    ],
    "region": "北京",
    "location": {
      "continent": "亚洲",
      "country": "中国",
      "province": "陕西省",
      "city": "雁塔区"
    }
  },
  {
    "name": "玉泉饭庄",
    "lat": 40.365058,
    "lng": 116.6790326,
    "visits": [
      {
        "date": "Tue Jul 22 17:00:01 +0800 2025",
        "postId": 5191253730790946,
        "postUrl": "https://weibo.com/7994637634/PChVr3jLc",
        "dishes": [],
        "quote": "探店玉泉饭庄，介绍一道四位数价格但有性价比的菜"
      }
    ],
    "region": "北京",
    "location": {
      "continent": "亚洲",
      "country": "中国",
      "province": null,
      "city": "怀柔区"
    }
  },
  {
    "name": "益发顺",
    "lat": 39.1073793,
    "lng": 117.2525534,
    "visits": [
      {
        "date": "Sun Jul 27 11:30:01 +0800 2025",
        "postId": 5192982626304929,
        "postUrl": "https://weibo.com/7994637634/PD0TYqscp",
        "dishes": [],
        "quote": "探访评论里提到最多的天津饭店益发顺"
      }
    ],
    "region": "北京",
    "location": {
      "continent": "亚洲",
      "country": "中国",
      "province": "天津市",
      "city": "河东区"
    }
  },
  {
    "name": "老厨家",
    "lat": 28.4701927,
    "lng": 87.7449138,
    "visits": [
      {
        "date": "Sat Aug 02 11:30:01 +0800 2025",
        "postId": 5195156950615314,
        "postUrl": "https://weibo.com/7994637634/PDVsX2A4q",
        "dishes": [],
        "quote": "探访老厨家，称锅包肉由其发明"
      }
    ],
    "region": "西藏",
    "location": {
      "continent": "亚洲",
      "country": "中国",
      "province": "西藏自治区",
      "city": "定结县"
    }
  },
  {
    "name": "金山小馆",
    "lat": 29.9594365,
    "lng": 121.467097,
    "visits": [
      {
        "date": "Sun Aug 10 12:01:10 +0800 2025",
        "postId": 5198063893219294,
        "postUrl": "https://weibo.com/7994637634/PF95zdvu6",
        "dishes": [],
        "quote": "特级厨师教徒弟的探店内容，未提及具体菜品"
      }
    ],
    "region": "浙江",
    "location": {
      "continent": "亚洲",
      "country": "中国",
      "province": "浙江省",
      "city": "江北区"
    }
  },
  {
    "name": "遇外滩",
    "lat": 31.2625298,
    "lng": 121.502603,
    "visits": [
      {
        "date": "Sun Aug 17 11:30:01 +0800 2025",
        "postId": 5200592767028224,
        "postUrl": "https://weibo.com/7994637634/Q0fq4tums",
        "dishes": [],
        "quote": "探访\"大陆第一餐厅\"遇外滩"
      }
    ],
    "region": "上海",
    "location": {
      "continent": "亚洲",
      "country": "中国",
      "province": "上海市",
      "city": "虹口区"
    }
  },
  {
    "name": "洋房火锅",
    "lat": 32.1516072,
    "lng": 112.1678028,
    "visits": [
      {
        "date": "Thu Aug 21 16:50:01 +0800 2025",
        "postId": 5202122851222748,
        "postUrl": "https://weibo.com/7994637634/Q0TdX585K",
        "dishes": [],
        "quote": "探访上海知名洋房火锅"
      }
    ],
    "region": "山东",
    "location": {
      "continent": "亚洲",
      "country": "中国",
      "province": "湖北省",
      "city": "襄阳市"
    }
  },
  {
    "name": "真不同",
    "lat": 40.1105859,
    "lng": 116.0991982,
    "visits": [
      {
        "date": "Mon Sep 08 11:30:01 +0800 2025",
        "postId": 5208565302429871,
        "postUrl": "https://weibo.com/7994637634/Q3AP0ac7t",
        "dishes": [
          "萝卜仿燕窝"
        ],
        "quote": "探店真不同，介绍了萝卜仿燕窝的技术"
      }
    ],
    "region": "河南",
    "location": {
      "continent": "亚洲",
      "country": "中国",
      "province": null,
      "city": "海淀区"
    }
  },
  {
    "name": "数福",
    "lat": 34.7513445,
    "lng": 113.6062627,
    "visits": [
      {
        "date": "Tue Sep 16 11:30:00 +0800 2025",
        "postId": 5211464405090610,
        "postUrl": "https://weibo.com/7994637634/Q4OeYlmiC",
        "dishes": [],
        "quote": "探店数福，提到河南餐厅加量的特点"
      }
    ],
    "region": "北京",
    "location": {
      "continent": "亚洲",
      "country": "中国",
      "province": "河南省",
      "city": "中原区"
    }
  },
  {
    "name": "杨记小炒",
    "lat": 39.9064023,
    "lng": 116.5794133,
    "visits": [
      {
        "date": "Sat Sep 20 11:30:00 +0800 2025",
        "postId": 5212913951312850,
        "postUrl": "https://weibo.com/7994637634/Q5pWX5vx0",
        "dishes": [
          "三狠汤"
        ],
        "quote": "探店杨记小炒，介绍高德扫街榜评分4.5的小店及三狠汤"
      }
    ],
    "region": "北京",
    "location": {
      "continent": "亚洲",
      "country": "中国",
      "province": null,
      "city": "朝阳区"
    }
  },
  {
    "name": "驼子饭店",
    "lat": 31.004661,
    "lng": 103.6221981,
    "visits": [
      {
        "date": "Tue Sep 30 11:30:01 +0800 2025",
        "postId": 5216537834947370,
        "postUrl": "https://weibo.com/7994637634/Q6WdVkL2i",
        "dishes": [],
        "quote": "高德扫街榜上藏在巷子里被本地人当食堂的小店"
      }
    ],
    "region": "四川",
    "location": {
      "continent": "亚洲",
      "country": "中国",
      "province": "四川省",
      "city": "都江堰市"
    }
  },
  {
    "name": "轩轩小院",
    "lat": 30.6833072,
    "lng": 104.0045121,
    "visits": [
      {
        "date": "Fri Oct 03 11:30:01 +0800 2025",
        "postId": 5217624996971037,
        "postUrl": "https://weibo.com/7994637634/Q7ovptfu5",
        "dishes": [],
        "quote": "景区店也有不错水平的成都探店"
      }
    ],
    "region": "北京",
    "location": {
      "continent": "亚洲",
      "country": "中国",
      "province": "四川省",
      "city": "青羊区"
    }
  },
  {
    "name": "喜鼎",
    "lat": 40.365291,
    "lng": 116.4941741,
    "visits": [
      {
        "date": "Fri Oct 10 11:30:00 +0800 2025",
        "postId": 5220161709936935,
        "postUrl": "https://weibo.com/7994637634/Q8suSFH39",
        "dishes": [
          "水饺"
        ],
        "quote": "探访北京十几块一个饺子的喜鼎"
      }
    ],
    "region": "北京",
    "location": {
      "continent": "亚洲",
      "country": "中国",
      "province": null,
      "city": "怀柔区"
    }
  },
  {
    "name": "小饭店大厨师",
    "lat": 22.939759,
    "lng": 113.3825024,
    "visits": [
      {
        "date": "Mon Oct 13 11:30:01 +0800 2025",
        "postId": 5221248881917957,
        "postUrl": "https://weibo.com/7994637634/Q8UMo82WN",
        "dishes": [],
        "quote": "店名本身说了很多，当教学视频看的探店"
      }
    ],
    "region": "广东",
    "location": {
      "continent": "亚洲",
      "country": "中国",
      "province": "广东省",
      "city": "番禺区"
    }
  },
  {
    "name": "利苑",
    "lat": 23.3110486,
    "lng": 113.5703312,
    "visits": [
      {
        "date": "Fri Oct 17 11:30:01 +0800 2025",
        "postId": 5222698427089419,
        "postUrl": "https://weibo.com/7994637634/Q9wumtKht",
        "dishes": [
          "干炒牛河"
        ],
        "quote": "探访广州利苑卖128元的干炒牛河"
      }
    ],
    "region": "北京",
    "location": {
      "continent": "亚洲",
      "country": "中国",
      "province": "广东省",
      "city": "广州市"
    }
  },
  {
    "name": "丘大",
    "lat": 29.9995205,
    "lng": 120.2878394,
    "visits": [
      {
        "date": "Sun Oct 19 11:30:00 +0800 2025",
        "postId": 5223423198370085,
        "postUrl": "https://weibo.com/7994637634/Q9Pllz7rn",
        "dishes": [],
        "quote": "探访广州丘大的点心"
      }
    ],
    "region": "北京",
    "location": {
      "continent": "亚洲",
      "country": "中国",
      "province": "浙江省",
      "city": "萧山区"
    }
  },
  {
    "name": "向群饭店",
    "lat": 23.1243807,
    "lng": 113.2462282,
    "visits": [
      {
        "date": "Mon Oct 27 11:30:01 +0800 2025",
        "postId": 5226322307580798,
        "postUrl": "https://weibo.com/7994637634/Qb2LkvO6W",
        "dishes": [],
        "quote": "拖着行李箱来吃，还吃开心了"
      }
    ],
    "region": "北京",
    "location": {
      "continent": "亚洲",
      "country": "中国",
      "province": "广东省",
      "city": "荔湾区"
    }
  },
  {
    "name": "白天鹅宾馆",
    "lat": 23.1089073,
    "lng": 113.2380831,
    "visits": [
      {
        "date": "Fri Oct 31 11:30:01 +0800 2025",
        "postId": 5227771856948179,
        "postUrl": "https://weibo.com/7994637634/QbEtjt9xp",
        "dishes": [],
        "quote": "探访粤菜天花板白天鹅宾馆"
      }
    ],
    "region": "北京",
    "location": {
      "continent": "亚洲",
      "country": "中国",
      "province": "广东省",
      "city": "荔湾区"
    }
  },
  {
    "name": "炳胜",
    "lat": 23.1081048,
    "lng": 113.2810218,
    "visits": [
      {
        "date": "Sun Nov 09 11:30:00 +0800 2025",
        "postId": 5231033345905905,
        "postUrl": "https://weibo.com/7994637634/Qd1jMoMox",
        "dishes": [],
        "quote": "探访粤菜另一座高山炳胜"
      }
    ],
    "region": "北京",
    "location": {
      "continent": "亚洲",
      "country": "中国",
      "province": "广东省",
      "city": "海珠区"
    }
  },
  {
    "name": "厨忆小湖南",
    "lat": 31.7450503,
    "lng": 117.1705935,
    "visits": [
      {
        "date": "Sun Nov 16 11:30:01 +0800 2025",
        "postId": 5233570065159314,
        "postUrl": "https://weibo.com/7994637634/Qe5jglEaK",
        "dishes": [],
        "quote": "求了好久才套出来的特级厨师珍藏小馆"
      }
    ],
    "region": "广西",
    "location": {
      "continent": "亚洲",
      "country": "中国",
      "province": "安徽省",
      "city": "合肥市"
    }
  },
  {
    "name": "老三篇",
    "lat": 22.8371916,
    "lng": 108.31702,
    "visits": [
      {
        "date": "Fri Nov 21 11:30:01 +0800 2025",
        "postId": 5235382002385338,
        "postUrl": "https://weibo.com/7994637634/QeQrKa0xc",
        "dishes": [],
        "quote": "南宁本地人全力推荐的饭店"
      }
    ],
    "region": "北京",
    "location": {
      "continent": "亚洲",
      "country": "中国",
      "province": "广西壮族自治区",
      "city": "南宁市"
    }
  },
  {
    "name": "于塗",
    "lat": 29.5259468,
    "lng": 106.417317,
    "visits": [
      {
        "date": "Sat Dec 20 11:30:02 +0800 2025",
        "postId": 5245891256258826,
        "postUrl": "https://weibo.com/7994637634/QjfQ9qgcO",
        "dishes": [],
        "quote": "重庆唯一连续8年上榜餐厅于塗探店"
      }
    ],
    "region": "北京",
    "location": {
      "continent": "亚洲",
      "country": "中国",
      "province": "重庆市",
      "city": "沙坪坝区"
    }
  },
  {
    "name": "浩南家家常菜",
    "lat": 40.1626588,
    "lng": 116.7073281,
    "visits": [
      {
        "date": "Mon Jan 26 16:35:01 +0800 2026",
        "postId": 5259376358330318,
        "postUrl": "https://weibo.com/7994637634/QoUEjyX5Y",
        "dishes": [],
        "quote": "探店浩南家家常菜，称网上没信息靠熟人推荐"
      }
    ],
    "region": "北京",
    "location": {
      "continent": "亚洲",
      "country": "中国",
      "province": null,
      "city": "顺义区"
    }
  },
  {
    "name": "华商",
    "lat": 22.834052,
    "lng": 108.2442972,
    "visits": [
      {
        "date": "Thu Feb 12 17:30:00 +0800 2026",
        "postId": 5265550788793910,
        "postUrl": "https://weibo.com/7994637634/Qrvh4ATHg",
        "dishes": [],
        "quote": "在成都华商被请吃饭，一日三餐按时吃"
      }
    ],
    "region": "北京",
    "location": {
      "continent": "亚洲",
      "country": "中国",
      "province": "广西壮族自治区",
      "city": "南宁市"
    }
  },
  {
    "name": "顺峰烧鸡",
    "lat": 22.6720417,
    "lng": 112.2127509,
    "visits": [
      {
        "date": "Sat Feb 14 11:30:01 +0800 2026",
        "postId": 5266184970963569,
        "postUrl": "https://weibo.com/7994637634/QrLLX42Fr",
        "dishes": [],
        "quote": "探店顺德顺峰烧鸡，一桌菜体验两极分化"
      }
    ],
    "region": "北京",
    "location": {
      "continent": "亚洲",
      "country": "中国",
      "province": "广东省",
      "city": "新兴县"
    }
  },
  {
    "name": "纪家小馆",
    "lat": 39.8672328,
    "lng": 116.4766302,
    "visits": [
      {
        "date": "Mon Mar 02 11:30:01 +0800 2026",
        "postId": 5271983178646672,
        "postUrl": "https://weibo.com/7994637634/QucBTAhos",
        "dishes": [],
        "quote": "探店纪家小馆，体验舒适难得"
      }
    ],
    "region": "北京",
    "location": {
      "continent": "亚洲",
      "country": "中国",
      "province": null,
      "city": "朝阳区"
    }
  },
  {
    "name": "山西饭店",
    "lat": 37.8637894,
    "lng": 112.5651545,
    "visits": [
      {
        "date": "Fri Mar 13 11:30:01 +0800 2026",
        "postId": 5275969444383035,
        "postUrl": "https://weibo.com/7994637634/QvSjmioe7",
        "dishes": [],
        "quote": "探店山西饭店，称其为山西菜天花板"
      }
    ],
    "region": "北京",
    "location": {
      "continent": "亚洲",
      "country": "中国",
      "province": "山西省",
      "city": "太原市"
    }
  },
  {
    "name": "同泽和",
    "lat": 41.7911638,
    "lng": 123.3988224,
    "visits": [
      {
        "date": "Thu Mar 19 11:30:01 +0800 2026",
        "postId": 5278143771315088,
        "postUrl": "https://weibo.com/7994637634/QwMSl5w76",
        "dishes": [],
        "quote": "探店太原便宜又好吃的饭店同泽和"
      }
    ],
    "region": "北京",
    "location": {
      "continent": "亚洲",
      "country": "中国",
      "province": "辽宁省",
      "city": "和平区"
    }
  },
  {
    "name": "江西小炒",
    "lat": 28.6722633,
    "lng": 115.9435375,
    "visits": [
      {
        "date": "Sun Mar 22 11:30:01 +0800 2026",
        "postId": 5279230935696269,
        "postUrl": "https://weibo.com/7994637634/Qxf9PnTRj",
        "dishes": [],
        "quote": "探店江西小炒，四张桌子干了三碗饭"
      }
    ],
    "region": "北京",
    "location": {
      "continent": "亚洲",
      "country": "中国",
      "province": "江西省",
      "city": "青山湖区"
    }
  },
  {
    "name": "鹿园餐厅",
    "lat": 31.0384645,
    "lng": 121.7116965,
    "visits": [
      {
        "date": "Wed Apr 01 11:30:01 +0800 2026",
        "postId": 5282854814355084,
        "postUrl": "https://weibo.com/7994637634/QyLqNigXi",
        "dishes": [],
        "quote": "探店连续8年米其林餐厅鹿园，测评其真实水平"
      }
    ],
    "region": "北京",
    "location": {
      "continent": "亚洲",
      "country": "中国",
      "province": "上海市",
      "city": "浦东新区"
    }
  },
  {
    "name": "茂盛饮食店",
    "lat": 28.6319337,
    "lng": 121.3969814,
    "visits": [
      {
        "date": "Sun Apr 05 11:30:01 +0800 2026",
        "postId": 5284304369484370,
        "postUrl": "https://weibo.com/7994637634/Qzn8MDNjI",
        "dishes": [],
        "quote": "探店上海小店茂盛饮食店"
      }
    ],
    "region": "安徽",
    "location": {
      "continent": "亚洲",
      "country": "中国",
      "province": "浙江省",
      "city": "椒江区"
    }
  },
  {
    "name": "叶家大院",
    "lat": 33.9595648,
    "lng": 118.2959329,
    "visits": [
      {
        "date": "Wed May 13 11:30:01 +0800 2026",
        "postId": 5298075104445252,
        "postUrl": "https://weibo.com/7994637634/QF9nEiEpC",
        "dishes": [],
        "quote": "探店叶家大院，吃过后剪视频又看馋了"
      }
    ],
    "region": "江苏",
    "location": {
      "continent": "亚洲",
      "country": "中国",
      "province": "江苏省",
      "city": "宿城区"
    }
  },
  {
    "name": "旧款宁波饭店",
    "lat": 31.2177833,
    "lng": 121.4302813,
    "visits": [
      {
        "date": "Mon Jun 01 11:30:00 +0800 2026",
        "postId": 5304960470486160,
        "postUrl": "https://weibo.com/7994637634/R252L22ti",
        "dishes": [],
        "quote": "四张桌子的小店，一顿吃几千"
      }
    ],
    "region": "北京",
    "location": {
      "continent": "亚洲",
      "country": "中国",
      "province": "上海市",
      "city": "长宁区"
    }
  },
  {
    "name": "151",
    "lat": 39.9057136,
    "lng": 116.3912972,
    "visits": [
      {
        "date": "Sun Jul 12 11:30:00 +0800 2026",
        "postId": 5319818370617060,
        "postUrl": "https://weibo.com/7994637634/R8jz72AwA",
        "dishes": [],
        "quote": "探店151餐厅，强调不管有无菜谱，好吃就是好菜"
      }
    ],
    "region": "北京",
    "location": {
      "continent": "亚洲",
      "country": "中国",
      "province": null,
      "city": "东城区"
    }
  },
  {
    "name": "毛毛饭店",
    "lat": 29.6952232,
    "lng": 115.9825128,
    "visits": [
      {
        "date": "Thu Jul 23 11:30:00 +0800 2026",
        "postId": 5323804639497406,
        "postUrl": "https://weibo.com/7994637634/R9ZgzDQHY",
        "dishes": [],
        "quote": "探店毛毛饭店，本地人推荐的几代人传承小饭店"
      }
    ],
    "region": "江西",
    "location": {
      "continent": "亚洲",
      "country": "中国",
      "province": "江西省",
      "city": "浔阳区"
    }
  }
]