[
  {
    "name": "全聚德",
    "lat": 39.9655062,
    "lng": 116.322635,
    "visits": [
      {
        "date": "Thu May 01 11:30:00 +0800 2025",
        "postId": 5161454874398034,
        "postUrl": "https://weibo.com/7994637634/PpMILis82",
        "dishes": [],
        "quote": "新人博主第一次探店全聚德，有点紧张"
      }
    ],
    "region": "北京"
  },
  {
    "name": "芙蓉凰",
    "lat": 30.6670078,
    "lng": 104.0074506,
    "visits": [
      {
        "date": "Sun Jun 15 11:30:00 +0800 2025",
        "postId": 5177762328349554,
        "postUrl": "https://weibo.com/7994637634/PwCX6z26e",
        "dishes": [],
        "quote": "|建号以来第一个全好评餐厅"
      }
    ],
    "region": "北京"
  },
  {
    "name": "食贵",
    "lat": 31.2333709,
    "lng": 121.4708818,
    "visits": [
      {
        "date": "Tue Jun 24 11:30:01 +0800 2025",
        "postId": 5181023823331865,
        "postUrl": "https://weibo.com/7994637634/PxZNAdYLL",
        "dishes": [],
        "quote": "|在上海主动要差评的餐厅探店"
      }
    ],
    "region": "北京"
  },
  {
    "name": "绿波廊",
    "lat": 31.2284191,
    "lng": 121.4875436,
    "visits": [
      {
        "date": "Thu Jun 26 11:30:00 +0800 2025",
        "postId": 5181748599062753,
        "postUrl": "https://weibo.com/7994637634/PyiEzC1Dr",
        "dishes": [],
        "quote": "|探访上海名店绿波廊"
      }
    ],
    "region": "北京"
  },
  {
    "name": "泽秀",
    "lat": 39.8587519,
    "lng": 116.3118567,
    "visits": [
      {
        "date": "Sat Jun 28 11:30:00 +0800 2025",
        "postId": 5182473375318282,
        "postUrl": "https://weibo.com/7994637634/PyBvzmjwK",
        "dishes": [],
        "quote": "众多网红推荐的炖菜小馆"
      }
    ],
    "region": "北京"
  },
  {
    "name": "好再来",
    "lat": 40.4465349,
    "lng": 116.6949165,
    "visits": [
      {
        "date": "Thu Jul 17 11:30:00 +0800 2025",
        "postId": 5189358741360042,
        "postUrl": "https://weibo.com/7994637634/PBuD05HOa",
        "dishes": [],
        "quote": "探店一家餐厅"
      }
    ],
    "region": "北京"
  },
  {
    "name": "西安饭庄",
    "lat": 34.2391764,
    "lng": 108.8890849,
    "visits": [
      {
        "date": "Sat Jul 19 11:30:00 +0800 2025",
        "postId": 5190083518922933,
        "postUrl": "https://weibo.com/7994637634/PBNtZBrgh",
        "dishes": [],
        "quote": "西安最有名的饭店探店"
      }
    ],
    "region": "北京"
  },
  {
    "name": "益发顺",
    "lat": 39.1073793,
    "lng": 117.2525534,
    "visits": [
      {
        "date": "Sun Jul 27 11:30:01 +0800 2025",
        "postId": 5192982626304929,
        "postUrl": "https://weibo.com/7994637634/PD0TYqscp",
        "dishes": [],
        "quote": "评论里提到最多的天津饭店探店"
      }
    ],
    "region": "北京"
  },
  {
    "name": "老厨家",
    "lat": 28.4701927,
    "lng": 87.7449138,
    "visits": [
      {
        "date": "Sat Aug 02 11:30:01 +0800 2025",
        "postId": 5195156950615314,
        "postUrl": "https://weibo.com/7994637634/PDVsX2A4q",
        "dishes": [],
        "quote": "锅包肉是他们家发明的探店"
      }
    ],
    "region": "西藏"
  },
  {
    "name": "金山小馆",
    "lat": 29.9594365,
    "lng": 121.467097,
    "visits": [
      {
        "date": "Sun Aug 10 12:01:10 +0800 2025",
        "postId": 5198063893219294,
        "postUrl": "https://weibo.com/7994637634/PF95zdvu6",
        "dishes": [],
        "quote": "特级厨师探店金山小馆，讲述如何教徒弟"
      }
    ],
    "region": "浙江"
  },
  {
    "name": "遇外滩",
    "lat": 31.2625298,
    "lng": 121.502603,
    "visits": [
      {
        "date": "Sun Aug 17 11:30:01 +0800 2025",
        "postId": 5200592767028224,
        "postUrl": "https://weibo.com/7994637634/Q0fq4tums",
        "dishes": [],
        "quote": "探店\"大陆第一餐厅\"遇外滩"
      }
    ],
    "region": "上海"
  },
  {
    "name": "数福",
    "lat": 34.7513445,
    "lng": 113.6062627,
    "visits": [
      {
        "date": "Tue Sep 16 11:30:00 +0800 2025",
        "postId": 5211464405090610,
        "postUrl": "https://weibo.com/7994637634/Q4OeYlmiC",
        "dishes": [],
        "quote": "探店数福，称来河南的餐厅都得加量"
      }
    ],
    "region": "北京"
  },
  {
    "name": "驼子饭店",
    "lat": 31.004661,
    "lng": 103.6221981,
    "visits": [
      {
        "date": "Tue Sep 30 11:30:01 +0800 2025",
        "postId": 5216537834947370,
        "postUrl": "https://weibo.com/7994637634/Q6WdVkL2i",
        "dishes": [],
        "quote": "高德扫街榜上藏在巷子里被本地人当食堂的小店"
      }
    ],
    "region": "四川"
  },
  {
    "name": "轩轩小院",
    "lat": 30.6833072,
    "lng": 104.0045121,
    "visits": [
      {
        "date": "Fri Oct 03 11:30:01 +0800 2025",
        "postId": 5217624996971037,
        "postUrl": "https://weibo.com/7994637634/Q7ovptfu5",
        "dishes": [],
        "quote": "景区店探店，水平出乎意料"
      }
    ],
    "region": "北京"
  },
  {
    "name": "喜鼎",
    "lat": 40.365291,
    "lng": 116.4941741,
    "visits": [
      {
        "date": "Fri Oct 10 11:30:00 +0800 2025",
        "postId": 5220161709936935,
        "postUrl": "https://weibo.com/7994637634/Q8suSFH39",
        "dishes": [
          "水饺"
        ],
        "quote": "探访十几块一个饺子的店"
      }
    ],
    "region": "北京"
  },
  {
    "name": "小饭店大厨师",
    "lat": 23.0635851,
    "lng": 113.3870255,
    "visits": [
      {
        "date": "Mon Oct 13 11:30:01 +0800 2025",
        "postId": 5221248881917957,
        "postUrl": "https://weibo.com/7994637634/Q8UMo82WN",
        "dishes": [],
        "quote": "探店一家名字颇有深意的小饭店"
      }
    ],
    "region": "广东"
  },
  {
    "name": "利苑",
    "lat": 23.3110486,
    "lng": 113.5703312,
    "visits": [
      {
        "date": "Fri Oct 17 11:30:01 +0800 2025",
        "postId": 5222698427089419,
        "postUrl": "https://weibo.com/7994637634/Q9wumtKht",
        "dishes": [
          "干炒牛河"
        ],
        "quote": "探访售价128元干炒牛河的餐厅"
      }
    ],
    "region": "北京"
  },
  {
    "name": "向群饭店",
    "lat": 23.1243807,
    "lng": 113.2462282,
    "visits": [
      {
        "date": "Mon Oct 27 11:30:01 +0800 2025",
        "postId": 5226322307580798,
        "postUrl": "https://weibo.com/7994637634/Qb2LkvO6W",
        "dishes": [],
        "quote": "拖着行李箱来吃，还吃开心了"
      }
    ],
    "region": "北京"
  },
  {
    "name": "白天鹅宾馆",
    "lat": 23.1089073,
    "lng": 113.2380831,
    "visits": [
      {
        "date": "Fri Oct 31 11:30:01 +0800 2025",
        "postId": 5227771856948179,
        "postUrl": "https://weibo.com/7994637634/QbEtjt9xp",
        "dishes": [],
        "quote": "探访粤菜天花板白天鹅宾馆"
      }
    ],
    "region": "北京"
  },
  {
    "name": "炳胜",
    "lat": 23.1081048,
    "lng": 113.2810218,
    "visits": [
      {
        "date": "Sun Nov 09 11:30:00 +0800 2025",
        "postId": 5231033345905905,
        "postUrl": "https://weibo.com/7994637634/Qd1jMoMox",
        "dishes": [],
        "quote": "探访粤菜另一座高山炳胜"
      }
    ],
    "region": "北京"
  },
  {
    "name": "老三篇",
    "lat": 22.8371916,
    "lng": 108.31702,
    "visits": [
      {
        "date": "Fri Nov 21 11:30:01 +0800 2025",
        "postId": 5235382002385338,
        "postUrl": "https://weibo.com/7994637634/QeQrKa0xc",
        "dishes": [],
        "quote": "南宁本地人全推荐的饭店老三篇"
      }
    ],
    "region": "北京"
  },
  {
    "name": "于塗",
    "lat": 29.5259468,
    "lng": 106.417317,
    "visits": [
      {
        "date": "Sat Dec 20 11:30:02 +0800 2025",
        "postId": 5245891256258826,
        "postUrl": "https://weibo.com/7994637634/QjfQ9qgcO",
        "dishes": [],
        "quote": "重庆唯一连续8年上榜餐厅于塗，探访其真实味道"
      }
    ],
    "region": "北京"
  },
  {
    "name": "浩南家家常菜",
    "lat": 40.1626588,
    "lng": 116.7073281,
    "visits": [
      {
        "date": "Mon Jan 26 16:35:01 +0800 2026",
        "postId": 5259376358330318,
        "postUrl": "https://weibo.com/7994637634/QoUEjyX5Y",
        "dishes": [],
        "quote": "探店网上没信息靠熟人推荐的浩南家家常菜，出品不错"
      }
    ],
    "region": "北京"
  },
  {
    "name": "华商",
    "lat": 30.6013622,
    "lng": 104.0164542,
    "visits": [
      {
        "date": "Thu Feb 12 17:30:00 +0800 2026",
        "postId": 5265550788793910,
        "postUrl": "https://weibo.com/7994637634/Qrvh4ATHg",
        "dishes": [],
        "quote": "在华商被请吃饭，一日三餐按时吃"
      }
    ],
    "region": "北京"
  },
  {
    "name": "纪家小馆",
    "lat": 39.8667456,
    "lng": 116.4884584,
    "visits": [
      {
        "date": "Mon Mar 02 11:30:01 +0800 2026",
        "postId": 5271983178646672,
        "postUrl": "https://weibo.com/7994637634/QucBTAhos",
        "dishes": [],
        "quote": "探店纪家小馆，称赞店内用餐体验舒适"
      }
    ],
    "region": "北京"
  },
  {
    "name": "山西饭店",
    "lat": 37.8637894,
    "lng": 112.5651545,
    "visits": [
      {
        "date": "Fri Mar 13 11:30:01 +0800 2026",
        "postId": 5275969444383035,
        "postUrl": "https://weibo.com/7994637634/QvSjmioe7",
        "dishes": [],
        "quote": "探店山西饭店，称其为山西菜天花板"
      }
    ],
    "region": "北京"
  },
  {
    "name": "鹿园餐厅",
    "lat": 31.0384645,
    "lng": 121.7116965,
    "visits": [
      {
        "date": "Wed Apr 01 11:30:01 +0800 2026",
        "postId": 5282854814355084,
        "postUrl": "https://weibo.com/7994637634/QyLqNigXi",
        "dishes": [],
        "quote": "探店上海鹿园餐厅，评测其连续8年米其林的真实水平"
      }
    ],
    "region": "北京"
  },
  {
    "name": "叶家大院",
    "lat": 33.9595648,
    "lng": 118.2959329,
    "visits": [
      {
        "date": "Wed May 13 11:30:01 +0800 2026",
        "postId": 5298075104445252,
        "postUrl": "https://weibo.com/7994637634/QF9nEiEpC",
        "dishes": [],
        "quote": "探店叶家大院，吃过后剪视频又看馋了"
      }
    ],
    "region": "江苏"
  },
  {
    "name": "旧款宁波饭店",
    "lat": 31.2177833,
    "lng": 121.4302813,
    "visits": [
      {
        "date": "Mon Jun 01 11:30:00 +0800 2026",
        "postId": 5304960470486160,
        "postUrl": "https://weibo.com/7994637634/R252L22ti",
        "dishes": [],
        "quote": "探店旧款宁波饭店，四张桌子的小店一顿吃几千"
      }
    ],
    "region": "北京"
  },
  {
    "name": "151",
    "lat": 39.9057136,
    "lng": 116.3912972,
    "visits": [
      {
        "date": "Sun Jul 12 11:30:00 +0800 2026",
        "postId": 5319818370617060,
        "postUrl": "https://weibo.com/7994637634/R8jz72AwA",
        "dishes": [],
        "quote": "探店151餐厅，强调不管有没有菜谱，好吃就是好菜"
      }
    ],
    "region": "北京"
  },
  {
    "name": "毛毛饭店",
    "lat": 29.6952232,
    "lng": 115.9825128,
    "visits": [
      {
        "date": "Thu Jul 23 11:30:00 +0800 2026",
        "postId": 5323804639497406,
        "postUrl": "https://weibo.com/7994637634/R9ZgzDQHY",
        "dishes": [],
        "quote": "探店毛毛饭店，本地人推荐的几代人传承小饭店"
      }
    ],
    "region": "江西"
  }
]